{
"type": "FeatureCollection",
"crs": { "type": "name", "properties": { "name": "urn:ogc:def:crs:OGC:1.3:CRS84" } },
"features": [
{ "type": "Feature", "properties": { "OBJECTID": 1, "stop_id": "STOP_6efb5472-ef98-421d-989c-20767c4c44ea", "stop_code": null, "stop_name": "6efb5472-ef98-421d-989c-20767c4c44ea", "stop_desc": null, "stop_lat": "-25.7589863", "stop_lon": "28.2767272", "zone_id": null, "stop_url": null, "location_t": "0", "parent_sta": null, "stop_timez": null, "wheelchair": null }, "geometry": { "type": "Point", "coordinates": [ 28.276727200000039, -25.758986299999947 ] } },
{ "type": "Feature", "properties": { "OBJECTID": 2, "stop_id": "STOP_da621f3e-9ba8-41ca-b915-8705357c08e4", "stop_code": null, "stop_name": "da621f3e-9ba8-41ca-b915-8705357c08e4", "stop_desc": null, "stop_lat": "-25.7627644", "stop_lon": "28.2835507", "zone_id": null, "stop_url": null, "location_t": "0", "parent_sta": null, "stop_timez": null, "wheelchair": null }, "geometry": { "type": "Point", "coordinates": [ 28.283550700000035, -25.7627644 ] } },
{ "type": "Feature", "properties": { "OBJECTID": 3, "stop_id": "STOP_28a4446e-45b0-4da5-a280-652c9af77210", "stop_code": null, "stop_name": "28a4446e-45b0-4da5-a280-652c9af77210", "stop_desc": null, "stop_lat": "-25.7615517", "stop_lon": "28.2822418", "zone_id": null, "stop_url": null, "location_t": "0", "parent_sta": null, "stop_timez": null, "wheelchair": null }, "geometry": { "type": "Point", "coordinates": [ 28.282241800000065, -25.761551699999927 ] } },
{ "type": "Feature", "properties": { "OBJECTID": 4, "stop_id": "STOP_c3961322-b637-4f64-9eba-40e41822d9f1", "stop_code": null, "stop_name": "c3961322-b637-4f64-9eba-40e41822d9f1", "stop_desc": null, "stop_lat": "-25.7648901", "stop_lon": "28.2796830", "zone_id": null, "stop_url": null, "location_t": "0", "parent_sta": null, "stop_timez": null, "wheelchair": null }, "geometry": { "type": "Point", "coordinates": [ 28.279683, -25.764890099999946 ] } },
{ "type": "Feature", "properties": { "OBJECTID": 5, "stop_id": "STOP_77813f65-639e-4d26-bc64-7cbe9887d263", "stop_code": null, "stop_name": "77813f65-639e-4d26-bc64-7cbe9887d263", "stop_desc": null, "stop_lat": "-25.7747113", "stop_lon": "28.2823330", "zone_id": null, "stop_url": null, "location_t": "0", "parent_sta": null, "stop_timez": null, "wheelchair": null }, "geometry": { "type": "Point", "coordinates": [ 28.282333, -25.774711299999979 ] } },
{ "type": "Feature", "properties": { "OBJECTID": 6, "stop_id": "STOP_880583e4-99e2-441d-bbca-ad323e972432", "stop_code": null, "stop_name": "880583e4-99e2-441d-bbca-ad323e972432", "stop_desc": null, "stop_lat": "-25.7800588", "stop_lon": "28.2752466", "zone_id": null, "stop_url": null, "location_t": "0", "parent_sta": null, "stop_timez": null, "wheelchair": null }, "geometry": { "type": "Point", "coordinates": [ 28.27524660000006, -25.780058799999949 ] } },
{ "type": "Feature", "properties": { "OBJECTID": 7, "stop_id": "STOP_ef3b52fe-8303-42c7-840e-467ae5441918", "stop_code": null, "stop_name": "ef3b52fe-8303-42c7-840e-467ae5441918", "stop_desc": null, "stop_lat": "-25.7663877", "stop_lon": "28.2780361", "zone_id": null, "stop_url": null, "location_t": "0", "parent_sta": null, "stop_timez": null, "wheelchair": null }, "geometry": { "type": "Point", "coordinates": [ 28.278036100000065, -25.766387699999939 ] } },
{ "type": "Feature", "properties": { "OBJECTID": 8, "stop_id": "STOP_9f77b6f0-bcfd-456b-a297-37c6e07c0da4", "stop_code": null, "stop_name": "9f77b6f0-bcfd-456b-a297-37c6e07c0da4", "stop_desc": null, "stop_lat": "-25.7720689", "stop_lon": "28.2801926", "zone_id": null, "stop_url": null, "location_t": "0", "parent_sta": null, "stop_timez": null, "wheelchair": null }, "geometry": { "type": "Point", "coordinates": [ 28.280192600000078, -25.772068899999965 ] } },
{ "type": "Feature", "properties": { "OBJECTID": 9, "stop_id": "STOP_24644561-16b6-4199-bc30-122141f40b84", "stop_code": null, "stop_name": "24644561-16b6-4199-bc30-122141f40b84", "stop_desc": null, "stop_lat": "-25.7768900", "stop_lon": "28.2828265", "zone_id": null, "stop_url": null, "location_t": "0", "parent_sta": null, "stop_timez": null, "wheelchair": null }, "geometry": { "type": "Point", "coordinates": [ 28.282826500000056, -25.77689 ] } },
{ "type": "Feature", "properties": { "OBJECTID": 10, "stop_id": "STOP_264bd751-2e57-42e6-8aee-f72027f18eb3", "stop_code": null, "stop_name": "264bd751-2e57-42e6-8aee-f72027f18eb3", "stop_desc": null, "stop_lat": "-25.7683733", "stop_lon": "28.2792270", "zone_id": null, "stop_url": null, "location_t": "0", "parent_sta": null, "stop_timez": null, "wheelchair": null }, "geometry": { "type": "Point", "coordinates": [ 28.279227, -25.768373299999951 ] } },
{ "type": "Feature", "properties": { "OBJECTID": 11, "stop_id": "STOP_de8c881b-4e21-4ecb-ad12-85c716c2bcc7", "stop_code": null, "stop_name": "de8c881b-4e21-4ecb-ad12-85c716c2bcc7", "stop_desc": null, "stop_lat": "-25.7792038", "stop_lon": "28.2795918", "zone_id": null, "stop_url": null, "location_t": "0", "parent_sta": null, "stop_timez": null, "wheelchair": null }, "geometry": { "type": "Point", "coordinates": [ 28.279591800000048, -25.779203799999948 ] } }
]
}
