{
"type": "FeatureCollection",
"crs": { "type": "name", "properties": { "name": "urn:ogc:def:crs:OGC:1.3:CRS84" } },
"features": [
{ "type": "Feature", "properties": { "OBJECTID": 1, "stop_id": "STOP_55c5d7f9-2e4f-4208-a826-f6da30e858b6", "stop_code": null, "stop_name": "55c5d7f9-2e4f-4208-a826-f6da30e858b6", "stop_desc": null, "stop_lat": "-25.7717018", "stop_lon": "28.2304323", "zone_id": null, "stop_url": null, "location_t": "0", "parent_sta": null, "stop_timez": null, "wheelchair": null }, "geometry": { "type": "Point", "coordinates": [ 28.230432300000075, -25.7717018 ] } },
{ "type": "Feature", "properties": { "OBJECTID": 2, "stop_id": "STOP_a7281016-c654-4569-88dd-e41e744983a2", "stop_code": null, "stop_name": "a7281016-c654-4569-88dd-e41e744983a2", "stop_desc": null, "stop_lat": "-25.7701027", "stop_lon": "28.2354373", "zone_id": null, "stop_url": null, "location_t": "0", "parent_sta": null, "stop_timez": null, "wheelchair": null }, "geometry": { "type": "Point", "coordinates": [ 28.235437300000058, -25.770102699999939 ] } },
{ "type": "Feature", "properties": { "OBJECTID": 3, "stop_id": "STOP_c1580986-2fc5-4229-a441-a97a66725355", "stop_code": null, "stop_name": "c1580986-2fc5-4229-a441-a97a66725355", "stop_desc": null, "stop_lat": "-25.7714119", "stop_lon": "28.2148862", "zone_id": null, "stop_url": null, "location_t": "0", "parent_sta": null, "stop_timez": null, "wheelchair": null }, "geometry": { "type": "Point", "coordinates": [ 28.214886200000024, -25.771411899999976 ] } },
{ "type": "Feature", "properties": { "OBJECTID": 4, "stop_id": "STOP_58dd6644-2b52-48e5-943a-2e0ed2c3a90d", "stop_code": null, "stop_name": "58dd6644-2b52-48e5-943a-2e0ed2c3a90d", "stop_desc": null, "stop_lat": "-25.7567639", "stop_lon": "28.2391334", "zone_id": null, "stop_url": null, "location_t": "0", "parent_sta": null, "stop_timez": null, "wheelchair": null }, "geometry": { "type": "Point", "coordinates": [ 28.239133400000071, -25.756763899999953 ] } },
{ "type": "Feature", "properties": { "OBJECTID": 5, "stop_id": "STOP_af1bd727-8743-4330-9830-f9214dd815bd", "stop_code": null, "stop_name": "af1bd727-8743-4330-9830-f9214dd815bd", "stop_desc": null, "stop_lat": "-25.7666583", "stop_lon": "28.2361829", "zone_id": null, "stop_url": null, "location_t": "0", "parent_sta": null, "stop_timez": null, "wheelchair": null }, "geometry": { "type": "Point", "coordinates": [ 28.236182900000074, -25.7666583 ] } },
{ "type": "Feature", "properties": { "OBJECTID": 6, "stop_id": "STOP_68c6a645-e064-4317-9cd0-7513b3a89716", "stop_code": null, "stop_name": "68c6a645-e064-4317-9cd0-7513b3a89716", "stop_desc": null, "stop_lat": "-25.7576142", "stop_lon": "28.2429743", "zone_id": null, "stop_url": null, "location_t": "0", "parent_sta": null, "stop_timez": null, "wheelchair": null }, "geometry": { "type": "Point", "coordinates": [ 28.242974300000071, -25.757614199999978 ] } },
{ "type": "Feature", "properties": { "OBJECTID": 7, "stop_id": "STOP_763c8dea-e663-4173-a9fd-ca7d627b304e", "stop_code": null, "stop_name": "763c8dea-e663-4173-a9fd-ca7d627b304e", "stop_desc": null, "stop_lat": "-25.7768223", "stop_lon": "28.2258511", "zone_id": null, "stop_url": null, "location_t": "0", "parent_sta": null, "stop_timez": null, "wheelchair": null }, "geometry": { "type": "Point", "coordinates": [ 28.225851100000057, -25.776822299999935 ] } },
{ "type": "Feature", "properties": { "OBJECTID": 8, "stop_id": "STOP_56942abc-8020-4449-aac4-9b0011bb02f5", "stop_code": null, "stop_name": "56942abc-8020-4449-aac4-9b0011bb02f5", "stop_desc": null, "stop_lat": "-25.7734795", "stop_lon": "28.2251215", "zone_id": null, "stop_url": null, "location_t": "0", "parent_sta": null, "stop_timez": null, "wheelchair": null }, "geometry": { "type": "Point", "coordinates": [ 28.225121500000057, -25.773479499999951 ] } },
{ "type": "Feature", "properties": { "OBJECTID": 9, "stop_id": "STOP_3372b5c7-7814-468f-976b-590196b3bc79", "stop_code": null, "stop_name": "3372b5c7-7814-468f-976b-590196b3bc79", "stop_desc": null, "stop_lat": "-25.7698853", "stop_lon": "28.2349920", "zone_id": null, "stop_url": null, "location_t": "0", "parent_sta": null, "stop_timez": null, "wheelchair": null }, "geometry": { "type": "Point", "coordinates": [ 28.234992, -25.769885299999942 ] } },
{ "type": "Feature", "properties": { "OBJECTID": 10, "stop_id": "STOP_e1417670-5fdb-40f2-bb13-4c41443e242a", "stop_code": null, "stop_name": "e1417670-5fdb-40f2-bb13-4c41443e242a", "stop_desc": null, "stop_lat": "-25.7751316", "stop_lon": "28.2126117", "zone_id": null, "stop_url": null, "location_t": "0", "parent_sta": null, "stop_timez": null, "wheelchair": null }, "geometry": { "type": "Point", "coordinates": [ 28.212611700000025, -25.775131599999952 ] } },
{ "type": "Feature", "properties": { "OBJECTID": 11, "stop_id": "STOP_43afac21-59a8-4874-b7b0-f9ddeb2777b1", "stop_code": null, "stop_name": "Lynnwood RD\/ Duxbury Road", "stop_desc": null, "stop_lat": "-25.7594018", "stop_lon": "28.2427919", "zone_id": null, "stop_url": null, "location_t": "0", "parent_sta": null, "stop_timez": null, "wheelchair": null }, "geometry": { "type": "Point", "coordinates": [ 28.242791900000043, -25.759401799999978 ] } },
{ "type": "Feature", "properties": { "OBJECTID": 12, "stop_id": "STOP_bdc6a130-8c8e-415c-95aa-438ef3fdb076", "stop_code": null, "stop_name": "bdc6a130-8c8e-415c-95aa-438ef3fdb076", "stop_desc": null, "stop_lat": "-25.7560681", "stop_lon": "28.2406354", "zone_id": null, "stop_url": null, "location_t": "0", "parent_sta": null, "stop_timez": null, "wheelchair": null }, "geometry": { "type": "Point", "coordinates": [ 28.240635400000031, -25.756068099999936 ] } },
{ "type": "Feature", "properties": { "OBJECTID": 13, "stop_id": "STOP_24c03b35-61f4-4994-b809-ff23e5c86623", "stop_code": null, "stop_name": "24c03b35-61f4-4994-b809-ff23e5c86623", "stop_desc": null, "stop_lat": "-25.7713153", "stop_lon": "28.2104659", "zone_id": null, "stop_url": null, "location_t": "0", "parent_sta": null, "stop_timez": null, "wheelchair": null }, "geometry": { "type": "Point", "coordinates": [ 28.210465900000031, -25.771315299999969 ] } },
{ "type": "Feature", "properties": { "OBJECTID": 14, "stop_id": "STOP_2eaa2b8b-c2c9-4fb7-aa4e-14e359e8effb", "stop_code": null, "stop_name": "2eaa2b8b-c2c9-4fb7-aa4e-14e359e8effb", "stop_desc": null, "stop_lat": "-25.7606579", "stop_lon": "28.2379639", "zone_id": null, "stop_url": null, "location_t": "0", "parent_sta": null, "stop_timez": null, "wheelchair": null }, "geometry": { "type": "Point", "coordinates": [ 28.237963900000068, -25.760657899999956 ] } },
{ "type": "Feature", "properties": { "OBJECTID": 15, "stop_id": "STOP_a5132b7b-5a33-4fe5-a097-9edb242dd4f1", "stop_code": null, "stop_name": "a5132b7b-5a33-4fe5-a097-9edb242dd4f1", "stop_desc": null, "stop_lat": "-25.7758176", "stop_lon": "28.2185984", "zone_id": null, "stop_url": null, "location_t": "0", "parent_sta": null, "stop_timez": null, "wheelchair": null }, "geometry": { "type": "Point", "coordinates": [ 28.218598400000076, -25.775817599999982 ] } },
{ "type": "Feature", "properties": { "OBJECTID": 16, "stop_id": "STOP_a728171c-0b0c-48fd-80fc-14505e5e4ce3", "stop_code": null, "stop_name": "a728171c-0b0c-48fd-80fc-14505e5e4ce3", "stop_desc": null, "stop_lat": "-25.7731317", "stop_lon": "28.2209587", "zone_id": null, "stop_url": null, "location_t": "0", "parent_sta": null, "stop_timez": null, "wheelchair": null }, "geometry": { "type": "Point", "coordinates": [ 28.22095870000004, -25.773131699999965 ] } }
]
}
