{
"type": "FeatureCollection",
"crs": { "type": "name", "properties": { "name": "urn:ogc:def:crs:OGC:1.3:CRS84" } },
"features": [
{ "type": "Feature", "properties": { "OBJECTID": 1, "stop_id": "STOP_9c20104e-4253-4544-a9aa-61b73d8ff3bd", "stop_code": null, "stop_name": "9c20104e-4253-4544-a9aa-61b73d8ff3bd", "stop_desc": null, "stop_lat": "-25.7675713", "stop_lon": "28.2580000", "zone_id": null, "stop_url": null, "location_t": "0", "parent_sta": null, "stop_timez": null, "wheelchair": null }, "geometry": { "type": "Point", "coordinates": [ 28.258, -25.767571299999929 ] } },
{ "type": "Feature", "properties": { "OBJECTID": 2, "stop_id": "STOP_c7689793-e403-4ce8-be47-5dcb908d24ff", "stop_code": null, "stop_name": "c7689793-e403-4ce8-be47-5dcb908d24ff", "stop_desc": null, "stop_lat": "-25.7778464", "stop_lon": "28.2564175", "zone_id": null, "stop_url": null, "location_t": "0", "parent_sta": null, "stop_timez": null, "wheelchair": null }, "geometry": { "type": "Point", "coordinates": [ 28.256417500000055, -25.7778464 ] } },
{ "type": "Feature", "properties": { "OBJECTID": 3, "stop_id": "STOP_75c02eb3-0c02-43a1-b9e9-70834876dcbd", "stop_code": null, "stop_name": "75c02eb3-0c02-43a1-b9e9-70834876dcbd", "stop_desc": null, "stop_lat": "-25.7782425", "stop_lon": "28.2418907", "zone_id": null, "stop_url": null, "location_t": "0", "parent_sta": null, "stop_timez": null, "wheelchair": null }, "geometry": { "type": "Point", "coordinates": [ 28.241890700000056, -25.778242499999976 ] } },
{ "type": "Feature", "properties": { "OBJECTID": 4, "stop_id": "STOP_2115281d-ce39-4903-92fe-fbf3628827a1", "stop_code": null, "stop_name": "2115281d-ce39-4903-92fe-fbf3628827a1", "stop_desc": null, "stop_lat": "-25.7727162", "stop_lon": "28.2573831", "zone_id": null, "stop_url": null, "location_t": "0", "parent_sta": null, "stop_timez": null, "wheelchair": null }, "geometry": { "type": "Point", "coordinates": [ 28.257383100000027, -25.772716199999934 ] } },
{ "type": "Feature", "properties": { "OBJECTID": 5, "stop_id": "STOP_3a6f7b92-f711-4ef0-9011-bcc346f99f55", "stop_code": null, "stop_name": "3a6f7b92-f711-4ef0-9011-bcc346f99f55", "stop_desc": null, "stop_lat": "-25.7786097", "stop_lon": "28.2487464", "zone_id": null, "stop_url": null, "location_t": "0", "parent_sta": null, "stop_timez": null, "wheelchair": null }, "geometry": { "type": "Point", "coordinates": [ 28.248746400000073, -25.778609699999947 ] } },
{ "type": "Feature", "properties": { "OBJECTID": 6, "stop_id": "STOP_8a3ca06a-4696-4dad-a85e-8f2d5fb71e62", "stop_code": null, "stop_name": "8a3ca06a-4696-4dad-a85e-8f2d5fb71e62", "stop_desc": null, "stop_lat": "-25.7696631", "stop_lon": "28.2584023", "zone_id": null, "stop_url": null, "location_t": "0", "parent_sta": null, "stop_timez": null, "wheelchair": null }, "geometry": { "type": "Point", "coordinates": [ 28.258402300000057, -25.769663099999946 ] } },
{ "type": "Feature", "properties": { "OBJECTID": 7, "stop_id": "STOP_37aa8402-4815-4126-91f5-4d8f64238d2b", "stop_code": null, "stop_name": "37aa8402-4815-4126-91f5-4d8f64238d2b", "stop_desc": null, "stop_lat": "-25.7750688", "stop_lon": "28.2413918", "zone_id": null, "stop_url": null, "location_t": "0", "parent_sta": null, "stop_timez": null, "wheelchair": null }, "geometry": { "type": "Point", "coordinates": [ 28.241391800000031, -25.775068799999929 ] } },
{ "type": "Feature", "properties": { "OBJECTID": 8, "stop_id": "STOP_9a52fc81-4cd4-4426-af9b-cf55dde10d54", "stop_code": null, "stop_name": "9a52fc81-4cd4-4426-af9b-cf55dde10d54", "stop_desc": null, "stop_lat": "-25.7659143", "stop_lon": "28.2445300", "zone_id": null, "stop_url": null, "location_t": "0", "parent_sta": null, "stop_timez": null, "wheelchair": null }, "geometry": { "type": "Point", "coordinates": [ 28.24453, -25.765914299999963 ] } },
{ "type": "Feature", "properties": { "OBJECTID": 9, "stop_id": "STOP_1bee4488-c2a1-488a-9710-3c0cfd57f4ce", "stop_code": null, "stop_name": "1bee4488-c2a1-488a-9710-3c0cfd57f4ce", "stop_desc": null, "stop_lat": "-25.7661558", "stop_lon": "28.2534885", "zone_id": null, "stop_url": null, "location_t": "0", "parent_sta": null, "stop_timez": null, "wheelchair": null }, "geometry": { "type": "Point", "coordinates": [ 28.25348850000006, -25.766155799999979 ] } },
{ "type": "Feature", "properties": { "OBJECTID": 10, "stop_id": "STOP_ad30533a-070b-4c78-a4ba-e8d5881edc25", "stop_code": null, "stop_name": "ad30533a-070b-4c78-a4ba-e8d5881edc25", "stop_desc": null, "stop_lat": "-25.7703684", "stop_lon": "28.2427061", "zone_id": null, "stop_url": null, "location_t": "0", "parent_sta": null, "stop_timez": null, "wheelchair": null }, "geometry": { "type": "Point", "coordinates": [ 28.242706100000078, -25.770368399999938 ] } }
]
}
