{
"type": "FeatureCollection",
"crs": { "type": "name", "properties": { "name": "urn:ogc:def:crs:OGC:1.3:CRS84" } },
"features": [
{ "type": "Feature", "properties": { "OBJECTID": 1, "stop_id": "STOP_980ea673-baef-4d2e-bfc4-f3b64911ae4c", "stop_code": null, "stop_name": "980ea673-baef-4d2e-bfc4-f3b64911ae4c", "stop_desc": null, "stop_lat": "-25.7571504", "stop_lon": "28.2724839", "zone_id": null, "stop_url": null, "location_t": "0", "parent_sta": null, "stop_timez": null, "wheelchair": null }, "geometry": { "type": "Point", "coordinates": [ 28.272483900000054, -25.757150399999944 ] } },
{ "type": "Feature", "properties": { "OBJECTID": 2, "stop_id": "STOP_64d25fac-747a-4359-8d64-57bd91489fdb", "stop_code": null, "stop_name": "64d25fac-747a-4359-8d64-57bd91489fdb", "stop_desc": null, "stop_lat": "-25.7564933", "stop_lon": "28.2564068", "zone_id": null, "stop_url": null, "location_t": "0", "parent_sta": null, "stop_timez": null, "wheelchair": null }, "geometry": { "type": "Point", "coordinates": [ 28.256406800000036, -25.756493299999931 ] } },
{ "type": "Feature", "properties": { "OBJECTID": 3, "stop_id": "STOP_297a2dcf-c6ac-4c17-a5e3-9bbdf9a1ec9d", "stop_code": null, "stop_name": "297a2dcf-c6ac-4c17-a5e3-9bbdf9a1ec9d", "stop_desc": null, "stop_lat": "-25.7595951", "stop_lon": "28.2717168", "zone_id": null, "stop_url": null, "location_t": "0", "parent_sta": null, "stop_timez": null, "wheelchair": null }, "geometry": { "type": "Point", "coordinates": [ 28.271716800000036, -25.759595099999956 ] } },
{ "type": "Feature", "properties": { "OBJECTID": 4, "stop_id": "STOP_ede80af3-37d8-4de0-9328-a66bdbe8f2c0", "stop_code": null, "stop_name": "ede80af3-37d8-4de0-9328-a66bdbe8f2c0", "stop_desc": null, "stop_lat": "-25.7669046", "stop_lon": "28.2590139", "zone_id": null, "stop_url": null, "location_t": "0", "parent_sta": null, "stop_timez": null, "wheelchair": null }, "geometry": { "type": "Point", "coordinates": [ 28.25901390000007, -25.766904599999975 ] } },
{ "type": "Feature", "properties": { "OBJECTID": 5, "stop_id": "STOP_6fc1f5f3-fc3c-4fd7-978b-29b261a0f6a1", "stop_code": null, "stop_name": "6fc1f5f3-fc3c-4fd7-978b-29b261a0f6a1", "stop_desc": null, "stop_lat": "-25.7612570", "stop_lon": "28.2515037", "zone_id": null, "stop_url": null, "location_t": "0", "parent_sta": null, "stop_timez": null, "wheelchair": null }, "geometry": { "type": "Point", "coordinates": [ 28.251503700000058, -25.761257 ] } },
{ "type": "Feature", "properties": { "OBJECTID": 6, "stop_id": "STOP_aed33694-3812-482d-9369-4ac8766a6129", "stop_code": null, "stop_name": "aed33694-3812-482d-9369-4ac8766a6129", "stop_desc": null, "stop_lat": "-25.7595951", "stop_lon": "28.2643569", "zone_id": null, "stop_url": null, "location_t": "0", "parent_sta": null, "stop_timez": null, "wheelchair": null }, "geometry": { "type": "Point", "coordinates": [ 28.264356900000053, -25.759595099999956 ] } },
{ "type": "Feature", "properties": { "OBJECTID": 7, "stop_id": "STOP_6c9c5c57-25f6-4a3b-85bc-3706cfc5800b", "stop_code": null, "stop_name": "6c9c5c57-25f6-4a3b-85bc-3706cfc5800b", "stop_desc": null, "stop_lat": "-25.7576480", "stop_lon": "28.2594645", "zone_id": null, "stop_url": null, "location_t": "0", "parent_sta": null, "stop_timez": null, "wheelchair": null }, "geometry": { "type": "Point", "coordinates": [ 28.259464500000036, -25.757648 ] } },
{ "type": "Feature", "properties": { "OBJECTID": 8, "stop_id": "STOP_cb68476c-f6ad-4bac-b189-a765ec8b1779", "stop_code": null, "stop_name": "cb68476c-f6ad-4bac-b189-a765ec8b1779", "stop_desc": null, "stop_lat": "-25.7652911", "stop_lon": "28.2629246", "zone_id": null, "stop_url": null, "location_t": "0", "parent_sta": null, "stop_timez": null, "wheelchair": null }, "geometry": { "type": "Point", "coordinates": [ 28.262924600000076, -25.765291099999956 ] } },
{ "type": "Feature", "properties": { "OBJECTID": 9, "stop_id": "STOP_a200bbd5-b244-4e9e-a34c-e938849afe04", "stop_code": null, "stop_name": "a200bbd5-b244-4e9e-a34c-e938849afe04", "stop_desc": null, "stop_lat": "-25.7680351", "stop_lon": "28.2669050", "zone_id": null, "stop_url": null, "location_t": "0", "parent_sta": null, "stop_timez": null, "wheelchair": null }, "geometry": { "type": "Point", "coordinates": [ 28.266905, -25.768035099999963 ] } },
{ "type": "Feature", "properties": { "OBJECTID": 10, "stop_id": "STOP_e63a0106-eef2-4eb7-8bd4-c9f587726669", "stop_code": null, "stop_name": "e63a0106-eef2-4eb7-8bd4-c9f587726669", "stop_desc": null, "stop_lat": "-25.7570393", "stop_lon": "28.2674253", "zone_id": null, "stop_url": null, "location_t": "0", "parent_sta": null, "stop_timez": null, "wheelchair": null }, "geometry": { "type": "Point", "coordinates": [ 28.26742530000007, -25.757039299999974 ] } },
{ "type": "Feature", "properties": { "OBJECTID": 11, "stop_id": "STOP_88c9ac9c-6eff-49e4-ad70-741ebde14694", "stop_code": null, "stop_name": "88c9ac9c-6eff-49e4-ad70-741ebde14694", "stop_desc": null, "stop_lat": "-25.7643345", "stop_lon": "28.2680154", "zone_id": null, "stop_url": null, "location_t": "0", "parent_sta": null, "stop_timez": null, "wheelchair": null }, "geometry": { "type": "Point", "coordinates": [ 28.268015400000024, -25.764334499999961 ] } },
{ "type": "Feature", "properties": { "OBJECTID": 12, "stop_id": "STOP_11207018-999c-4706-beb9-a8176fe6376e", "stop_code": null, "stop_name": "11207018-999c-4706-beb9-a8176fe6376e", "stop_desc": null, "stop_lat": "-25.7612377", "stop_lon": "28.2690239", "zone_id": null, "stop_url": null, "location_t": "0", "parent_sta": null, "stop_timez": null, "wheelchair": null }, "geometry": { "type": "Point", "coordinates": [ 28.269023900000036, -25.761237699999981 ] } }
]
}
